{
    {
        "id": "83003027",
        "name": "Longview",
        "address": "811 Caldwell Lane",
        "lat": 36.105815,
        "long": -86.7753609999999,
        "listdate": "1983",
        "photo": "longview"
    },
    {
        "id": "83003028",
        "name": "Richland Hall",
        "address": "4822 Charlotte Ave.",
        "lat": 36.1523713,
        "long": -86.8458567,
        "listdate": "1983",
        "photo": "richland-hall"
    },
    {
        "id": "84000089",
        "name": "Federal Reserve Bank of Atlanta",
        "address": "226 N. 3rd Ave.",
        "lat": 36.1652632999999,
        "long": -86.7780753999999,
        "listdate": "1984",
        "photo": "federal-reserve-bank"
    },
    {
        "id": "84000092",
        "name": "James Robertson Hotel",
        "address": "118 N. 7th Ave.",
        "lat": 36.160436,
        "long": -86.781107,
        "listdate": "1984",
        "photo": "james-robertson-hotel"
    },
    {
        "id": "84000090",
        "name": "Noel Hotel",
        "address": "200 N. 4th Ave.",
        "lat": 36.1639928,
        "long": -86.7787804,
        "listdate": "1984",
        "photo": "noel-hotel"
    },
    {
        "id": "84000091",
        "name": "Rich-Schwartz Building",
        "address": "202 N. 6th Ave.",
        "lat": 36.163041,
        "long": -86.7814548999999,
        "listdate": "1984",
        "photo": "rich-schwartz-building"
    },
    {
        "id": "84000324",
        "name": "Hows-Madden House",
        "address": "U.S. 70",
        "lat": 36.092222,
        "long": -86.983889,
        "listdate": "1984",
        "photo": "hows-madden-house"
    },
    {
        "id": "84003474",
        "name": "Belle Meade Apartments",
        "address": "715 Belle Meade Blvd.",
        "lat": 36.096206,
        "long": -86.85748,
        "listdate": "1984",
        "photo": "belle-meade-apartments"
    },
    {
        "id": "84003483",
        "name": "Bennie-Dillon Building",
        "address": "702 Church St.",
        "lat": 36.1622149,
        "long": -86.7830329999999,
        "listdate": "1984",
        "photo": "bennie-dillon-building"
    },
    {
        "id": "84003486",
        "name": "James Buchanan House",
        "address": "2910 Elm Hill Pike",
        "lat": 36.1452098,
        "long": -86.6573111,
        "listdate": "1984",
        "photo": "james-buchanan-house"
    },
    {
        "id": "84003507",
        "name": "Lindsley Avenue Church of Christ",
        "address": "3 Lindsley Ave.",
        "lat": 36.1522431,
        "long": -86.7686337,
        "listdate": "1984",
        "photo": "lindsley-avenue-church"
    },
    {
        "id": "84003509",
        "name": "Longleat",
        "address": "5819 Hillsboro Rd.",
        "lat": 36.0778447,
        "long": -86.8420582,
        "listdate": "1984",
        "photo": "longleat"
    },
    {
        "id": "84003511",
        "name": "Overbrook",
        "address": "4218 Harding Rd.",
        "lat": 36.1281318,
        "long": -86.8428026,
        "listdate": "1984",
        "photo": "overbrook"
    },
    {
        "id": "83004237",
        "name": "St. Ann's Episcopal Church",
        "address": "419 Woodland St.",
        "lat": 36.1719811999999,
        "long": -86.7655508,
        "listdate": "1983",
        "photo": "stanns-episcopal-church"
    },
    {
        "id": "84003519",
        "name": "Southern Methodist Publishing House",
        "address": "810 Broadway",
        "lat": 36.1591063,
        "long": -86.7828637999999,
        "listdate": "1984",
        "photo": "southern-methodist-publishing"
    },
    {
        "id": "84000376",
        "name": "Berger Building",
        "address": "164 N. 8th Ave.",
        "lat": 36.1575133,
        "long": -86.780779,
        "listdate": "1984",
        "photo": "berger-building"
    },
    {
        "id": "85001607",
        "name": "Doctor's Building",
        "address": "706 Church St.",
        "lat": 36.1621097999999,
        "long": -86.7833706999999,
        "listdate": "1985",
        "photo": "doctors-building"
    },
    {
        "id": "66000722",
        "name": "The Hermitage",
        "address": "12 mi. E of Nashville on U.S. 70N",
        "lat": 36.2150265,
        "long": -86.612956,
        "listdate": "1966",
        "photo": "the-hermitage"
    },
    {
        "id": "71000817",
        "name": "Jubilee Hall, Fisk University",
        "address": "17th Ave., N.",
        "lat": 36.1663845,
        "long": -86.8032906999999,
        "listdate": "1971",
        "photo": "jubilee-hall"
    },
    {
        "id": "66000723",
        "name": "Peabody College for Teachers",
        "address": "21st Ave. S. and Edgehill Ave.",
        "lat": 36.1432117,
        "long": -86.8016862,
        "listdate": "1966",
        "photo": "peabody-college-teachers"
    },
    {
        "id": "69000178",
        "name": "Nashville Union Station and Trainshed",
        "address": "Broadway and 10th Ave.",
        "lat": 36.1572,
        "long": -86.7848,
        "listdate": "1969",
        "photo": "nashville-union-station"
    },
    {
        "id": "83004233",
        "name": "Cummins Station",
        "address": "Demonbreun and 10th Ave., S.",
        "lat": 36.15515,
        "long": -86.7847584,
        "listdate": "1983",
        "photo": "cummins-station"
    },
    {
        "id": "84003496",
        "name": "Elm Street Methodist Church",
        "address": "616 5th Ave., S.",
        "lat": 36.1530735,
        "long": -86.7731714,
        "listdate": "1984",
        "photo": "elm-street-methodist"
    },
    {
        "id": "83004235",
        "name": "Glen Oak",
        "address": "2012 25th Ave., S.",
        "lat": 36.132605,
        "long": -86.80673,
        "listdate": "1983",
        "photo": "glen-oak"
    },
    {
        "id": "85001608",
        "name": "Little Sisters of the Poor Home for the Aged",
        "address": "1400 18th Ave., S.",
        "lat": 36.1406186,
        "long": -86.7959834,
        "listdate": "1985",
        "photo": "little-sisters-poor"
    },
    {
        "id": "84003513",
        "name": "Primitive Baptist Church",
        "address": "629 3rd Ave., S.",
        "lat": 36.1540333,
        "long": -86.7716724,
        "listdate": "1984",
        "photo": "primitive-baptist-church"
    },
    {
        "id": "84003516",
        "name": "St. Patrick's Catholic Church and Rectory",
        "address": "1219 2nd Ave., S.",
        "lat": 36.1446286,
        "long": -86.764176,
        "listdate": "1984",
        "photo": "stpatricks-catholic-church"
    },
    {
        "id": "82001727",
        "name": "Young Women's Christian Association Building",
        "address": "211 7th Ave., N.",
        "lat": 36.1628183,
        "long": -86.7834798,
        "listdate": "1982",
        "photo": "young-womens-christian"
    },
    {
        "id": "70000894",
        "name": "Tennessee State Capitol",
        "address": "Capitol Hill",
        "lat": 36.165849,
        "long": -86.7842941,
        "listdate": "1970",
        "photo": "tennessee-state-capitol"
    },
    {
        "id": "80003787",
        "name": "Cheatham Building",
        "address": "309 Church St.",
        "lat": 36.1638474,
        "long": -86.7781324,
        "listdate": "1980",
        "photo": "cheatham-building"
    },
    {
        "id": "78002577",
        "name": "Christ Church",
        "address": "900 Broadway",
        "lat": 36.158831,
        "long": -86.7831919999999,
        "listdate": "1978",
        "photo": "christ-church"
    },
    {
        "id": "77001262",
        "name": "Church of the Assumption",
        "address": "1227 7th Ave., N.",
        "lat": 36.1755491,
        "long": -86.7916523999999,
        "listdate": "1977",
        "photo": "church-of-assumption"
    },
    {
        "id": "80003789",
        "name": "Demonbreun's Cave",
        "address": "1700 Omohumdro Dr.",
        "lat": 36.1608403,
        "long": -86.7088433,
        "listdate": "1980",
        "photo": "demonbreuns-cave"
    },
    {
        "id": "80003790",
        "name": "Alexander Ewing House",
        "address": "5101 Buena Vista Pk.",
        "lat": 36.2333603,
        "long": -86.829203,
        "listdate": "1980",
        "photo": "alexander-ewing-house"
    },
    {
        "id": "79002421",
        "name": "Fall School",
        "address": "1116 S. 8th Ave.",
        "lat": 36.1424119,
        "long": -86.7787458999999,
        "listdate": "1979",
        "photo": "fall-school"
    },
    {
        "id": "75001748",
        "name": "Fort Negley",
        "address": "Ridley Blvd. and Chestnut St.",
        "lat": 36.1432441,
        "long": -86.7773201,
        "listdate": "1975",
        "photo": "fort-negley"
    },
    {
        "id": "78002580",
        "name": "James Geddes Engine Company No. 6",
        "address": "629 2nd Ave., S.",
        "lat": 36.1543657,
        "long": -86.770328,
        "listdate": "1978",
        "photo": "james-geddes-engine"
    },
    {
        "id": "75001749",
        "name": "Hermitage Hotel",
        "address": "231 6th Ave., N.",
        "lat": 36.1636788,
        "long": -86.7823143,
        "listdate": "1975",
        "photo": "hermitage-hotel"
    },
    {
        "id": "82003963",
        "name": "Holly Street Fire Hall",
        "address": "1600 Holly St.",
        "lat": 36.1751649,
        "long": -86.7420159,
        "listdate": "1982",
        "photo": "holly-street-fire"
    },
    {
        "id": "72001234",
        "name": "Holy Trinity Church",
        "address": "615 6th Ave., S.",
        "lat": 36.152842,
        "long": -86.7755047,
        "listdate": "1972",
        "photo": "holy-trinity-church"
    },
    {
        "id": "74001909",
        "name": "Hume-Fogg High School",
        "address": "700 Broad St.",
        "lat": 36.1595903,
        "long": -86.783944,
        "listdate": "1974",
        "photo": "hume-fogg-high"
    },
    {
        "id": "78002581",
        "name": "Litterer Laboratory",
        "address": "631 2nd Ave., S.",
        "lat": 36.1541363,
        "long": -86.7705065,
        "listdate": "1978",
        "photo": "litterer-laboratory"
    },
    {
        "id": "78002582",
        "name": "Mechanical Engineering Hall, Vanderbilt University",
        "address": "Grand Ave. and 21st Ave., S.",
        "lat": 36.1447044,
        "long": -86.8045787,
        "listdate": "1978",
        "photo": "mechanical-engineering-hall"
    },
    {
        "id": "72001238",
        "name": "Two Rivers",
        "address": "3130 McGavock Pike",
        "lat": 36.1897728,
        "long": -86.6775243999999,
        "listdate": "1972",
        "photo": "two-rivers"
    },
    {
        "id": "71000815",
        "name": "Belair",
        "address": "2250 Lebanon Rd.",
        "lat": 36.1694013,
        "long": -86.6877387,
        "listdate": "1971",
        "photo": "belair"
    },
    {
        "id": "69000177",
        "name": "Belle Meade",
        "address": "Harding Rd. at Leake Ave.",
        "lat": 36.1047697,
        "long": -86.8679007,
        "listdate": "1969",
        "photo": "belle-meade"
    },
    {
        "id": "74001907",
        "name": "Cole House",
        "address": "2001 Lebanon Rd.",
        "lat": 36.156632,
        "long": -86.703912,
        "listdate": "1974",
        "photo": "cole-house"
    },
    {
        "id": "72001233",
        "name": "Vanderbilt University Gymnasium",
        "address": "West End and 23rd Aves.",
        "lat": 36.142458,
        "long": -86.808104,
        "listdate": "1972",
        "photo": "gymnasium-vanderbilt-university"
    },
    {
        "id": "75001750",
        "name": "West Meade",
        "address": "Old Harding Pike",
        "lat": 36.1027034,
        "long": -86.92707,
        "listdate": "1975",
        "photo": "west-meade"
    },
    {
        "id": "78002584",
        "name": "Woodlawn",
        "address": "127 Woodmont Blvd.",
        "lat": 36.1219352,
        "long": -86.8454201,
        "listdate": "1978",
        "photo": "woodlawn"
    },
    {
        "id": "78002583",
        "name": "Robincroft",
        "address": "746 Benton Ave.",
        "lat": 36.132686,
        "long": -86.7775219999999,
        "listdate": "1978",
        "photo": "robincroft"
    },
    {
        "id": "79002424",
        "name": "Miles House",
        "address": "631 Woodland St.",
        "lat": 36.1736218,
        "long": -86.7605947,
        "listdate": "1979",
        "photo": "miles-house"
    },
    {
        "id": "72001236",
        "name": "Parthenon, The",
        "address": "Centennial Park",
        "lat": 36.1496736999999,
        "long": -86.8133467,
        "listdate": "1972",
        "photo": "the-parthenon"
    },
    {
        "id": "70000609",
        "name": "St. Mary's Catholic Church",
        "address": "330 5th Ave., N.",
        "lat": 36.165823,
        "long": -86.7815665,
        "listdate": "1970",
        "photo": "stmarys-catholic-church"
    },
    {
        "id": "76001772",
        "name": "St. Cecilia Academy",
        "address": "8th Ave. and Clay St.",
        "lat": 36.132337,
        "long": -86.8446937,
        "listdate": "1976",
        "photo": "stcecilia-academy"
    },
    {
        "id": "71000819",
        "name": "Ryman Auditorium",
        "address": "116 Fifth Ave. North",
        "lat": 36.1612472,
        "long": -86.7784710999999,
        "listdate": "1971",
        "photo": "ryman-auditorium"
    },
    {
        "id": "71000818",
        "name": "Nashville Children's Museum",
        "address": "724 2nd Ave., S.",
        "lat": 36.1539293,
        "long": -86.7699964999999,
        "listdate": "1971",
        "photo": "nashville-childrens-museum"
    },
    {
        "id": "79002428",
        "name": "Utopia Hotel",
        "address": "206 4th Ave., N.",
        "lat": 36.1641199,
        "long": -86.7788099,
        "listdate": "1979",
        "photo": "utopia-hotel"
    },
    {
        "id": "73001761",
        "name": "Nashville Arcade",
        "address": "Between 4th and 5th Aves.",
        "lat": 36.1530941,
        "long": -86.8182166,
        "listdate": "1973",
        "photo": "nashville-arcade"
    },
    {
        "id": "76001771",
        "name": "Newsom's Mill",
        "address": "W of Nashville at Big Harpeth River",
        "lat": 36.0794382,
        "long": -86.9981982,
        "listdate": "1976",
        "photo": "newsoms-mill"
    },
    {
        "id": "86003237",
        "name": "Shelby Street Bridge",
        "address": "Over Cumberland River at Shelby St.",
        "lat": 36.1621493,
        "long": -86.7742681,
        "listdate": "1986",
        "photo": "shelby-street-bridge"
    },
    {
        "id": "72001235",
        "name": "Nashville City Cemetery",
        "address": "1001 S. 4th Ave.",
        "lat": 36.1475754999999,
        "long": -86.7694559,
        "listdate": "1972",
        "photo": "nashville-city-cemetery"
    },
    {
        "id": "78002578",
        "name": "Eighth Avenue South Reservoir",
        "address": "8th Ave., S.",
        "lat": 36.1350988,
        "long": -86.7790021,
        "listdate": "1978",
        "photo": "eighth-avenue-south"
    },
    {
        "id": "87000379",
        "name": "Lebanon Road Stone Arch Bridge",
        "address": "Over Brown's Creek at Lebanon Rd.",
        "lat": 36.15443,
        "long": -86.74254,
        "listdate": "1987",
        "photo": "lebanon-road-stone"
    },
    {
        "id": "84000580",
        "name": "US Post Office",
        "address": "901 Broadway",
        "lat": 36.1575755,
        "long": -86.7836342,
        "listdate": "1984",
        "photo": "us-post-office"
    },
    {
        "id": "79002427",
        "name": "Third Baptist Church",
        "address": "906 and 908 Monroe St.",
        "lat": 36.1748522,
        "long": -86.797531,
        "listdate": "1979",
        "photo": "third-baptist-church"
    },
    {
        "id": "74001910",
        "name": "Sunnyside",
        "address": "3000 Granny White Pike",
        "lat": 36.1196914,
        "long": -86.7908585999999,
        "listdate": "1974",
        "photo": "sunnyside"
    },
    {
        "id": "84003503",
        "name": "Grassmere",
        "address": "Nolensville Rd.",
        "lat": 36.0871935,
        "long": -86.7434407,
        "listdate": "1984",
        "photo": "grassmere"
    },
    {
        "id": "90001580",
        "name": "Dozier Farm",
        "address": "8451 River Rd. Pike",
        "lat": 36.204051,
        "long": -86.9742709999999,
        "listdate": "1990",
        "photo": "dozier-farm"
    },
    {
        "id": "73001762",
        "name": "Frederick Stump House",
        "address": "4949 Buena Vista Pike",
        "lat": 36.231891,
        "long": -86.8254789999999,
        "listdate": "1973",
        "photo": "frederick-stump-house"
    },
    {
        "id": "73001760",
        "name": "Hubbard House",
        "address": "1109 1st Ave., S.",
        "lat": 36.146972,
        "long": -86.7642559999999,
        "listdate": "1973",
        "photo": "hubbard-house"
    },
    {
        "id": "85000045",
        "name": "Capers C.M.E. Church",
        "address": "319 15th Ave., N.",
        "lat": 36.1593269,
        "long": -86.7950182,
        "listdate": "1985",
        "photo": "capers-cme-church"
    },
    {
        "id": "85000046",
        "name": "Morris Memorial Building",
        "address": "330 Charlotte Ave.",
        "lat": 36.1666611,
        "long": -86.7806471999999,
        "listdate": "1985",
        "photo": "morris-memorial-building"
    },
    {
        "id": "77001264",
        "name": "Riverwood",
        "address": "1833 Welcome Lane",
        "lat": 36.19995,
        "long": -86.7104049999999,
        "listdate": "1977",
        "photo": "riverwood"
    },
    {
        "id": "83003025",
        "name": "Gladstone Apartments",
        "address": "3803 West End Ave.",
        "lat": 36.131737,
        "long": -86.8320019999999,
        "listdate": "1983",
        "photo": "gladstone-apartments"
    },
    {
        "id": "70000608",
        "name": "First Presbyterian Church",
        "address": "154 5th Ave., N.",
        "lat": 36.1629443,
        "long": -86.7797532,
        "listdate": "1970",
        "photo": "first-presbyterian-church"
    },
    {
        "id": "91000436",
        "name": "Ellis Service Station Garage",
        "address": "2000 Old Murfreesboro Rd.",
        "lat": 36.0959615,
        "long": -86.6531790999999,
        "listdate": "1991",
        "photo": "ellis-service-station"
    },
    {
        "id": "79002423",
        "name": "Gilbert Mansion",
        "address": "1906 West End Ave.",
        "lat": 36.1523625,
        "long": -86.7982768,
        "listdate": "1979",
        "photo": "gilbert-mansion"
    },
    {
        "id": "82003959",
        "name": "Bush-Herbert Building",
        "address": "174 3rd. Ave., N.",
        "lat": 36.163854,
        "long": -86.7771669999999,
        "listdate": "1982",
        "photo": "bush-herbert-building"
    },
    {
        "id": "98000842",
        "name": "Lyttle, Hulda Margaret, Hall of Meharry Medical College",
        "address": "1005 Dr. D. B. Todd, Jr. Blvd.",
        "lat": 36.1666065,
        "long": -86.8054954,
        "listdate": "1998",
        "photo": "meharry-medical-college"
    },
    {
        "id": "98001305",
        "name": "The Hibbettage",
        "address": "2160 Old Hickory Blvd.",
        "lat": 36.051814,
        "long": -86.8664359,
        "listdate": "1998",
        "photo": "the-hibbettage"
    },
    {
        "id": "99000957",
        "name": "Castner--Knott Building",
        "address": "618 Church St.",
        "lat": 36.1624057999999,
        "long": -86.782446,
        "listdate": "1999",
        "photo": "castner-knott-building"
    },
    {
        "id": "00000993",
        "name": "Cheekwood",
        "address": "1200 Forest Park Dr.",
        "lat": 36.0874489,
        "long": -86.8746018,
        "listdate": "2000",
        "photo": "cheekwood"
    },
    {
        "id": "02000828",
        "name": "Pearl High School",
        "address": "613 17th Ave. N",
        "lat": 36.1618344,
        "long": -86.8009753,
        "listdate": "2002",
        "photo": "pearl-high-school"
    },
    {
        "id": "02001340",
        "name": "Oglesby School",
        "address": "5724 Edmondson Pike",
        "lat": 36.037942,
        "long": -86.742864,
        "listdate": "2002",
        "photo": "oglesby-school"
    },
    {
        "id": "03000280",
        "name": "Woodmont Terrace Apartments",
        "address": "920 Woodmont",
        "lat": 36.11135,
        "long": -86.7834308999999,
        "listdate": "2003",
        "photo": "woodmont-terrace-apartments"
    },
    {
        "id": "03000726",
        "name": "West End High School",
        "address": "3529 West End Ave.",
        "lat": 36.131723,
        "long": -86.825638,
        "listdate": "2003",
        "photo": "west-end-high"
    },
    {
        "id": "03001154",
        "name": "Tennessee State Library and Archives",
        "address": "403 7th Ave. N.",
        "lat": 36.165514,
        "long": -86.785115,
        "listdate": "2003",
        "photo": "tennessee-state-library"
    },
    {
        "id": "04000440",
        "name": "Temple Cemetery",
        "address": "2001 15th Ave. N",
        "lat": 36.183645,
        "long": -86.8100299,
        "listdate": "2004",
        "photo": "temple-cemetery"
    },
    {
        "id": "05000180",
        "name": "Cameron School",
        "address": "1034 First Ave. S",
        "lat": 36.1486064,
        "long": -86.7642353999999,
        "listdate": "2005",
        "photo": "cameron-school"
    },
    {
        "id": "05000181",
        "name": "Nashville Christian Institute Gymnasium",
        "address": "2420 Batavia St.",
        "lat": 36.1615729,
        "long": -86.8129531,
        "listdate": "2005",
        "photo": "nashville-christian-institute"
    },
    {
        "id": "05000761",
        "name": "First Baptist Church East Nashville",
        "address": "601 Main St.",
        "lat": 36.1740704,
        "long": -86.7627441999999,
        "listdate": "2005",
        "photo": "first-baptist-east"
    },
    {
        "id": "05001027",
        "name": "Airdrie",
        "address": "3210 Avenal Ave.",
        "lat": 36.103234,
        "long": -86.731583,
        "listdate": "2005",
        "photo": "airdrie"
    },
    {
        "id": "06001036",
        "name": "Thomas W. Philips Memorial",
        "address": "1101 19th Ave. S",
        "lat": 36.1456062,
        "long": -86.7977421,
        "listdate": "2006",
        "photo": "thomas-philips-memorial"
    }
}